[{"address_components": [{"long_name": "S\u00e3o Jorge", "short_name": "S\u00e3o Jorge", "types": ["establishment", "natural_feature"]}, {"long_name": "Azores", "short_name": "Azores", "types": ["administrative_area_level_1", "political"]}, {"long_name": "Portugal", "short_name": "PT", "types": ["country", "political"]}], "formatted_address": "S\u00e3o Jorge, Portugal", "geometry": {"bounds": {"northeast": {"lat": 38.7566325, "lng": -27.7526211}, "southwest": {"lat": 38.5333804, "lng": -28.3176189}}, "location": {"lat": 38.6409678, "lng": -28.0303189}, "location_type": "APPROXIMATE", "viewport": {"northeast": {"lat": 38.7566325, "lng": -27.7526211}, "southwest": {"lat": 38.5333804, "lng": -28.3176189}}}, "partial_match": true, "place_id": "ChIJb1q-Cry2RwsRJ-RHppun5NQ", "types": ["establishment", "natural_feature"]}, {"address_components": [{"long_name": "Santa Maria Island", "short_name": "Santa Maria Island", "types": ["establishment", "natural_feature"]}, {"long_name": "Azores", "short_name": "Azores", "types": ["administrative_area_level_1", "political"]}, {"long_name": "Portugal", "short_name": "PT", "types": ["country", "political"]}, {"long_name": "9580", "short_name": "9580", "types": ["postal_code", "postal_code_prefix"]}], "formatted_address": "Santa Maria Island, 9580, Portugal", "geometry": {"bounds": {"northeast": {"lat": 37.0176216, "lng": -25.0130749}, "southwest": {"lat": 36.9276637, "lng": -25.1855523}}, "location": {"lat": 36.9788003, "lng": -25.1059054}, "location_type": "APPROXIMATE", "viewport": {"northeast": {"lat": 37.0176216, "lng": -25.0130749}, "southwest": {"lat": 36.9276637, "lng": -25.1855523}}}, "partial_match": true, "place_id": "ChIJ9_0brr6QZwsRXfHKRfBLyN4", "types": ["establishment", "natural_feature"]}, {"address_components": [{"long_name": "Terceira Island", "short_name": "Terceira Island", "types": ["establishment", "natural_feature"]}, {"long_name": "Azores", "short_name": "Azores", "types": ["administrative_area_level_1", "political"]}, {"long_name": "Portugal", "short_name": "PT", "types": ["country", "political"]}], "formatted_address": "Terceira Island, Portugal", "geometry": {"bounds": {"northeast": {"lat": 38.8031709, "lng": -27.0415699}, "southwest": {"lat": 38.6389865, "lng": -27.3794525}}, "location": {"lat": 38.7216415, "lng": -27.2205771}, "location_type": "APPROXIMATE", "viewport": {"northeast": {"lat": 38.8031709, "lng": -27.0415699}, "southwest": {"lat": 38.6389865, "lng": -27.3794525}}}, "partial_match": true, "place_id": "ChIJZzBXYfh4RgsRRyNWL-7loXA", "types": ["establishment", "natural_feature"]}]