[{"address_components": [{"long_name": "Caserta", "short_name": "Caserta", "types": ["administrative_area_level_3", "political"]}, {"long_name": "Province of Caserta", "short_name": "CE", "types": ["administrative_area_level_2", "political"]}, {"long_name": "Campania", "short_name": "Campania", "types": ["administrative_area_level_1", "political"]}, {"long_name": "Italy", "short_name": "IT", "types": ["country", "political"]}, {"long_name": "81100", "short_name": "81100", "types": ["postal_code"]}], "formatted_address": "81100 Caserta, Province of Caserta, Italy", "geometry": {"bounds": {"northeast": {"lat": 41.1327419, "lng": 14.4346483}, "southwest": {"lat": 41.04254359999999, "lng": 14.2777434}}, "location": {"lat": 41.0854362, "lng": 14.367553}, "location_type": "APPROXIMATE", "viewport": {"northeast": {"lat": 41.1327419, "lng": 14.4346483}, "southwest": {"lat": 41.04254359999999, "lng": 14.2777434}}}, "partial_match": true, "place_id": "ChIJ59ZFSBhUOhMRkMdjmR_hCQQ", "types": ["administrative_area_level_3", "political"]}, {"address_components": [{"long_name": "Avellino", "short_name": "Avellino", "types": ["locality", "political"]}, {"long_name": "Avellino", "short_name": "Avellino", "types": ["administrative_area_level_3", "political"]}, {"long_name": "Province of Avellino", "short_name": "AV", "types": ["administrative_area_level_2", "political"]}, {"long_name": "Campania", "short_name": "Campania", "types": ["administrative_area_level_1", "political"]}, {"long_name": "Italy", "short_name": "IT", "types": ["country", "political"]}, {"long_name": "83100", "short_name": "83100", "types": ["postal_code"]}], "formatted_address": "83100 Avellino, Province of Avellino, Italy", "geometry": {"bounds": {"northeast": {"lat": 40.9458888, "lng": 14.8314412}, "southwest": {"lat": 40.8984426, "lng": 14.7588462}}, "location": {"lat": 40.914388, "lng": 14.7906121}, "location_type": "APPROXIMATE", "viewport": {"northeast": {"lat": 40.9458888, "lng": 14.8314412}, "southwest": {"lat": 40.8984426, "lng": 14.7588462}}}, "partial_match": true, "place_id": "ChIJ3dhaElXMOxMR2k5gul0noQA", "types": ["locality", "political"]}, {"address_components": [{"long_name": "Naples", "short_name": "Naples", "types": ["administrative_area_level_3", "political"]}, {"long_name": "Metropolitan City of Naples", "short_name": "NA", "types": ["administrative_area_level_2", "political"]}, {"long_name": "Campania", "short_name": "Campania", "types": ["administrative_area_level_1", "political"]}, {"long_name": "Italy", "short_name": "IT", "types": ["country", "political"]}], "formatted_address": "Naples, Metropolitan City of Naples, Italy", "geometry": {"bounds": {"northeast": {"lat": 40.9159348, "lng": 14.3537148}, "southwest": {"lat": 40.7912795, "lng": 14.132299}}, "location": {"lat": 40.8517983, "lng": 14.26812}, "location_type": "APPROXIMATE", "viewport": {"northeast": {"lat": 40.9159348, "lng": 14.3537148}, "southwest": {"lat": 40.7912795, "lng": 14.132299}}}, "partial_match": true, "place_id": "ChIJmX5sak8IOxMRHRl4O8Es9T0", "types": ["administrative_area_level_3", "political"]}, {"address_components": [{"long_name": "Potenza", "short_name": "Potenza", "types": ["locality", "political"]}, {"long_name": "Potenza", "short_name": "Potenza", "types": ["administrative_area_level_3", "political"]}, {"long_name": "Province of Potenza", "short_name": "PZ", "types": ["administrative_area_level_2", "political"]}, {"long_name": "Basilicata", "short_name": "Basilicata", "types": ["administrative_area_level_1", "political"]}, {"long_name": "Italy", "short_name": "IT", "types": ["country", "political"]}, {"long_name": "85100", "short_name": "85100", "types": ["postal_code"]}], "formatted_address": "85100 Potenza, Province of Potenza, Italy", "geometry": {"bounds": {"northeast": {"lat": 40.6652423, "lng": 15.8454938}, "southwest": {"lat": 40.6172146, "lng": 15.7721653}}, "location": {"lat": 40.6404067, "lng": 15.8056041}, "location_type": "APPROXIMATE", "viewport": {"northeast": {"lat": 40.6652423, "lng": 15.8454938}, "southwest": {"lat": 40.6172146, "lng": 15.7721653}}}, "partial_match": true, "place_id": "ChIJCU1G2eriOBMRJbK1tMPe5zA", "types": ["locality", "political"]}]